"stop_id","stop_code","stop_name","location_type","parent_station","stop_lon","stop_lat"
900170101,"Adenauerbrücke","Adenauerbrücke",0,9001701,9.988553888888889,48.3887511111111
900170102,"Adenauerbrücke","Adenauerbrücke",0,9001701,9.98814888888889,48.3884697222222
900170103,"Adenauerbrücke","Adenauerbrücke",0,9001701,9.989585833333329,48.3885097222222
9001701,"Adenauerbrücke","Adenauerbrücke",1,,9.989585833333329,48.3885097222222
900106101,"Albecker Steige","Albecker Steige",0,9001061,10.0038788888889,48.4140025
9001061,"Albecker Steige","Albecker Steige",1,,10.0038788888889,48.4140025
900116201,"Albstraße","Albstraße",0,9001162,9.985896666666671,48.43447027777779
900116202,"Albstraße","Albstraße",0,9001162,9.98619888888889,48.4352952777778
9001162,"Albstraße","Albstraße",1,,9.98619888888889,48.4352952777778
900108311,"Alfred-Delp-Weg","Alfred-Delp-Weg",0,9001083,10.01315397286323,48.42348212764378
900108312,"Alfred-Delp-Weg","Alfred-Delp-Weg",0,9001083,10.0132138888889,48.42342500000001
9001083,"Alfred-Delp-Weg","Alfred-Delp-Weg",1,,10.0132138888889,48.42342500000001
900176701,"Allgäuer Straße","Allgäuer Straße",0,9001767,10.01360811637932,48.36390084666179
900176702,"Allgäuer Straße","Allgäuer Straße",0,9001767,10.01307632585449,48.36389420641215
9001767,"Allgäuer Straße","Allgäuer Straße",1,,10.01307632585449,48.36389420641215
900160201,"Alte Siedlung","Alte Siedlung",0,9001602,9.98284333333333,48.35387722222221
900160202,"Alte Siedlung","Alte Siedlung",0,9001602,9.983292750950914,48.35401380162954
900160203,"Alte Siedlung","Alte Siedlung",0,9001602,9.982762034495332,48.35376790353419
9001602,"Alte Siedlung","Alte Siedlung",1,,9.982762034495332,48.35376790353419
900133901,"Am Roten Berg","Am Roten Berg",0,9001339,9.939599166666669,48.40109111111111
900133902,"Am Roten Berg","Am Roten Berg",0,9001339,9.940464444444441,48.4008133333333
9001339,"Am Roten Berg","Am Roten Berg",1,,9.940464444444441,48.4008133333333
900159101,"Am Sandhaken","Am Sandhaken",0,9001591,9.96127027777778,48.3645494444444
9001591,"Am Sandhaken","Am Sandhaken",1,,9.96127027777778,48.3645494444444
900170501,"Amtsgericht","Amtsgericht",0,9001705,9.99372994554175,48.39136640173085
900170502,"Amtsgericht","Amtsgericht",0,9001705,9.994919411019303,48.39202656063706
9001705,"Amtsgericht","Amtsgericht",1,,9.994919411019303,48.39202656063706
900174501,"Arena","Arena",0,9001745,10.00577,48.38237
900174502,"Arena","Arena",0,9001745,10.00564926938699,48.38168574174888
9001745,"Arena","Arena",1,,10.00564926938699,48.38168574174888
900276301,"Arnegg, Bildstöckle","Bildstöckle",0,9002763,9.8743,48.41337777777778
9002763,"Arnegg, Bildstöckle","Bildstöckle",1,,9.8743,48.41337777777778
900276101,"Arnegg, Gasthof Blautal","Gasthof Blautal",0,9002761,9.880434902672073,48.41548366947771
900276102,"Arnegg, Gasthof Blautal","Gasthof Blautal",0,9002761,9.879730951703817,48.4154131787977
9002761,"Arnegg, Gasthof Blautal","Gasthof Blautal",1,,9.879730951703817,48.4154131787977
900117301,"Auf dem Hart","Auf dem Hart",0,9001173,9.986782501888079,48.4389486460614
900117302,"Auf dem Hart","Auf dem Hart",0,9001173,9.987580343571338,48.43921703555059
9001173,"Auf dem Hart","Auf dem Hart",1,,9.987580343571338,48.43921703555059
900136701,"Auf der Gölde","Auf der Gölde",0,9001367,9.968198611111109,48.4006925
900136702,"Auf der Gölde","Auf der Gölde",0,9001367,9.9668075,48.4004272222222
9001367,"Auf der Gölde","Auf der Gölde",1,,9.9668075,48.4004272222222
900133101,"Auf der Laue","Auf der Laue",0,9001331,9.948158152692905,48.39491993203272
900133102,"Auf der Laue","Auf der Laue",0,9001331,9.948841797214218,48.39504230018086
9001331,"Auf der Laue","Auf der Laue",1,,9.948841797214218,48.39504230018086
900171302,"Augsburger Tor","Augsburger Tor",0,9001713,10.0041002777778,48.3982772222222
9001713,"Augsburger Tor","Augsburger Tor",1,,10.0041002777778,48.3982772222222
900122001,"Bahnhof Söflingen","Bahnhof Söflingen",0,9001220,9.95861027777778,48.4031027777778
900122002,"Bahnhof Söflingen","Bahnhof Söflingen",0,9001220,9.959067777777779,48.40306527777779
9001220,"Bahnhof Söflingen","Bahnhof Söflingen",1,,9.959067777777779,48.40306527777779
900139501,"Barbaralinde","Barbaralinde",0,9001395,9.950470579023145,48.37929822206992
900139502,"Barbaralinde","Barbaralinde",0,9001395,9.95006361049275,48.37907456560126
9001395,"Barbaralinde","Barbaralinde",1,,9.95006361049275,48.37907456560126
900136601,"Beim B'scheid","Beim B'scheid",0,9001366,9.97391066385887,48.40181458451939
900136602,"Beim B'scheid","Beim B'scheid",0,9001366,9.974133954061736,48.40171517582979
9001366,"Beim B'scheid","Beim B'scheid",1,,9.974133954061736,48.40171517582979
900128001,"Beim Türmle","Beim Türmle",0,9001280,9.95656111111111,48.40650999999999
900128002,"Beim Türmle","Beim Türmle",0,9001280,9.956469444444444,48.40655
9001280,"Beim Türmle","Beim Türmle",1,,9.956469444444444,48.40655
900150601,"Benzstraße","Benzstraße",0,9001506,9.94248593466555,48.36647521580012
900150602,"Benzstraße","Benzstraße",0,9001506,9.942532413800631,48.36643187655941
900150603,"Benzstraße","Benzstraße",0,9001506,9.941795001304026,48.36568178937682
900150604,"Benzstraße","Benzstraße",0,9001506,9.941742604723791,48.36567153718158
9001506,"Benzstraße","Benzstraße",1,,9.941742604723791,48.36567153718158
900122201,"Beringerbrücke","Beringerbrücke",0,9001222,9.966420388212082,48.40466307223969
900122202,"Beringerbrücke","Beringerbrücke",0,9001222,9.966335902441763,48.4046054226001
9001222,"Beringerbrücke","Beringerbrücke",1,,9.966335902441763,48.4046054226001
900135501,"Beyerstraße (nur Pausenhaltestelle)","Beyerstraße (nur Pausenhaltestelle)",0,9001355,9.97832916666667,48.3929661111111
9001355,"Beyerstraße (nur Pausenhaltestelle)","Beyerstraße (nur Pausenhaltestelle)",1,,9.97832916666667,48.3929661111111
900270801,"Blaustein, Am Blaugarten","Am Blaugarten",0,9002708,9.929097120038211,48.41118680913465
900270802,"Blaustein, Am Blaugarten","Am Blaugarten",0,9002708,9.92918196273286,48.41105162181433
9002708,"Blaustein, Am Blaugarten","Am Blaugarten",1,,9.92918196273286,48.41105162181433
900270101,"Blaustein, Bahnhof/Rathaus","Bahnhof/Rathaus",0,9002701,9.918284058224749,48.41573102398231
900270102,"Blaustein, Bahnhof/Rathaus","Bahnhof/Rathaus",0,9002701,9.918723773592365,48.41536709647362
9002701,"Blaustein, Bahnhof/Rathaus","Bahnhof/Rathaus",1,,9.918723773592365,48.41536709647362
900270201,"Blaustein, Galgenbergstraße","Galgenbergstraße",0,9002702,9.915679047317044,48.41530743843369
900270202,"Blaustein, Galgenbergstraße","Galgenbergstraße",0,9002702,9.91635638888889,48.4146722222222
9002702,"Blaustein, Galgenbergstraße","Galgenbergstraße",1,,9.91635638888889,48.4146722222222
900271001,"Blaustein, Hofstraße","Hofstraße",0,9002710,9.923248055555559,48.41523583333331
900271002,"Blaustein, Hofstraße","Hofstraße",0,9002710,9.92247083333333,48.41516111111109
9002710,"Blaustein, Hofstraße","Hofstraße",1,,9.92247083333333,48.41516111111109
900270401,"Blaustein, Kalte Herberge","Kalte Herberge",0,9002704,9.908879760673472,48.41829146340522
900270402,"Blaustein, Kalte Herberge","Kalte Herberge",0,9002704,9.908033156078703,48.41853654883283
9002704,"Blaustein, Kalte Herberge","Kalte Herberge",1,,9.908033156078703,48.41853654883283
900272001,"Blaustein, Lindenstraße","Lindenstraße",0,9002720,9.934930838880147,48.40853201843127
9002720,"Blaustein, Lindenstraße","Lindenstraße",1,,9.934930838880147,48.40853201843127
900135401,"Blautal-Center","Blautal-Center",0,9001354,9.961613792070597,48.40064776745712
900135402,"Blautal-Center","Blautal-Center",0,9001354,9.9615575,48.4004472222222
900135403,"Blautal-Center","Blautal-Center",0,9001354,9.960532777777781,48.4003238888889
9001354,"Blautal-Center","Blautal-Center",1,,9.960532777777781,48.4003238888889
900122501,"Bleicher Hag","Bleicher Hag",0,9001225,9.971879722222219,48.4060236111111
9001225,"Bleicher Hag","Bleicher Hag",1,,9.971879722222219,48.4060236111111
900135101,"Blücherstraße","Blücherstraße",0,9001351,9.972984227264529,48.39385057497254
900135102,"Blücherstraße","Blücherstraße",0,9001351,9.973683931497243,48.39385701468397
900135111,"Blücherstraße","Blücherstraße",0,9001351,9.972984227264529,48.39385057497254
900135112,"Blücherstraße","Blücherstraße",0,9001351,9.973683931497243,48.39385701468397
9001351,"Blücherstraße","Blücherstraße",1,,9.973683931497243,48.39385701468397
900186403,"Borsigstraße","Borsigstraße",0,9001864,10.01653027238044,48.39572302870437
900186404,"Borsigstraße","Borsigstraße",0,9001864,10.01647224255759,48.39577746400447
9001864,"Borsigstraße","Borsigstraße",1,,10.01647224255759,48.39577746400447
900150701,"Boschstraße","Boschstraße",0,9001507,9.95389611111111,48.3701791666667
900150702,"Boschstraße","Boschstraße",0,9001507,9.954389444444439,48.37119083333329
9001507,"Boschstraße","Boschstraße",1,,9.954389444444439,48.37119083333329
900124101,"Botanischer Garten","Botanischer Garten",0,9001241,9.95678916666667,48.4249044444444
900124102,"Botanischer Garten","Botanischer Garten",0,9001241,9.956816944444441,48.4247744444444
9001241,"Botanischer Garten","Botanischer Garten",1,,9.956816944444441,48.4247744444444
900173401,"Bradleystraße","Bradleystraße",0,9001734,10.01141654656524,48.38559659012037
900173402,"Bradleystraße","Bradleystraße",0,9001734,10.01171304910092,48.38572272708178
9001734,"Bradleystraße","Bradleystraße",1,,10.01171304910092,48.38572272708178
900121001,"Burgunderweg","Burgunderweg",0,9001210,9.961342235040595,48.40879492169888
900121002,"Burgunderweg","Burgunderweg",0,9001210,9.961345181587742,48.40875660038721
9001210,"Burgunderweg","Burgunderweg",1,,9.961345181587742,48.40875660038721
900196102,"Burlafingen, Bahnhof","Bahnhof",0,9001961,10.06910283716144,48.41076617055655
9001961,"Burlafingen, Bahnhof","Bahnhof",1,,10.06910283716144,48.41076617055655
900196202,"Burlafingen, Dorfplatz","Dorfplatz",0,9001962,10.0681,48.4152633333333
9001962,"Burlafingen, Dorfplatz","Dorfplatz",1,,10.0681,48.4152633333333
900196402,"Burlafingen, Glöcklerstraße","Glöcklerstraße",0,9001964,10.06519314711062,48.41642325627352
9001964,"Burlafingen, Glöcklerstraße","Glöcklerstraße",1,,10.06519314711062,48.41642325627352
900196802,"Burlafingen, Schule","Schule",0,9001968,10.06976059587446,48.41204144451912
9001968,"Burlafingen, Schule","Schule",1,,10.06976059587446,48.41204144451912
900134201,"Clarissenstraße","Clarissenstraße",0,9001342,9.9532925,48.3989511111111
900134202,"Clarissenstraße","Clarissenstraße",0,9001342,9.953354166666671,48.3988663888889
9001342,"Clarissenstraße","Clarissenstraße",1,,9.953354166666671,48.3988663888889
900104901,"Congress Centrum","Congress Centrum",0,9001049,10.0034413888889,48.4009261111111
900104902,"Congress Centrum","Congress Centrum",0,9001049,10.0037127777778,48.4008075
9001049,"Congress Centrum","Congress Centrum",1,,10.0037127777778,48.4008075
900150201,"Daimlerstraße","Daimlerstraße",0,9001502,9.95298194444444,48.36711749999999
900150202,"Daimlerstraße","Daimlerstraße",0,9001502,9.9527225,48.3664561111111
9001502,"Daimlerstraße","Daimlerstraße",1,,9.9527225,48.3664561111111
900177201,"Danziger Straße","Danziger Straße",0,9001772,10.0112894444444,48.370815
900177202,"Danziger Straße","Danziger Straße",0,9001772,10.0112925864321,48.37075232851504
9001772,"Danziger Straße","Danziger Straße",1,,10.0112925864321,48.37075232851504
900158601,"DEUTZ AG","DEUTZ AG",0,9001586,9.933619269365632,48.36160257045979
900158602,"DEUTZ AG","DEUTZ AG",0,9001586,9.932833333333329,48.3616647222222
9001586,"DEUTZ AG","DEUTZ AG",1,,9.932833333333329,48.3616647222222
900116701,"Donau-Iller-Werkstätten","Donau-Iller-Werkstätten",0,9001167,9.984615277777779,48.4473261111111
900116702,"Donau-Iller-Werkstätten","Donau-Iller-Werkstätten",0,9001167,9.985911111111109,48.44695277777781
9001167,"Donau-Iller-Werkstätten","Donau-Iller-Werkstätten",1,,9.985911111111109,48.44695277777781
900170201,"Donaubad","Donaubad",0,9001702,9.986986944444441,48.3852841666667
900170202,"Donaubad","Donaubad",0,9001702,9.986892777777779,48.3850519444444
9001702,"Donaubad","Donaubad",1,,9.986892777777779,48.3850519444444
900170701,"Donaucenter","Donaucenter",0,9001707,9.997177430727696,48.39440314901014
9001707,"Donaucenter","Donaucenter",1,,9.997177430727696,48.39440314901014
900105401,"Donauhalle","Donauhalle",0,9001054,10.01124704970015,48.41213630905413
900105411,"Donauhalle","Donauhalle",0,9001054,10.01124704970015,48.41213630905413
900105402,"Donauhalle","Donauhalle",0,9001054,10.0112344444444,48.41210750000001
900105412,"Donauhalle","Donauhalle",0,9001054,10.0112344444444,48.41210750000001
9001054,"Donauhalle","Donauhalle",1,,10.0112344444444,48.41210750000001
900173901,"Donauklinik","Donauklinik",0,9001739,9.993487960676124,48.3932697958509
9001739,"Donauklinik","Donauklinik",1,,9.993487960676124,48.3932697958509
900105201,"Donaustadion","Donaustadion",0,9001052,10.0076333333333,48.4049875
900105202,"Donaustadion","Donaustadion",0,9001052,10.0074894444444,48.4049786111111
900105203,"Donaustadion","Donaustadion",0,9001052,10.00687291339537,48.40505648004079
900105211,"Donaustadion","Donaustadion",0,9001052,10.0076333333333,48.4049875
900105212,"Donaustadion","Donaustadion",0,9001052,10.0074894444444,48.4049786111111
900105213,"Donaustadion","Donaustadion",0,9001052,10.00692602903977,48.40510082258956
9001052,"Donaustadion","Donaustadion",1,,10.00692602903977,48.40510082258956
900167203,"Donaustetten, Illerkirchberger Str.","Illerkirchberger Str.",0,9001672,9.931953325285466,48.32810990318298
900167204,"Donaustetten, Illerkirchberger Str.","Illerkirchberger Str.",0,9001672,9.931902951375822,48.32815595435217
9001672,"Donaustetten, Illerkirchberger Str.","Illerkirchberger Str.",1,,9.931902951375822,48.32815595435217
900167101,"Donaustetten, Wasserturm","Wasserturm",0,9001671,9.933177316942874,48.33170398085594
900167102,"Donaustetten, Wasserturm","Wasserturm",0,9001671,9.933029291486562,48.33158489495781
9001671,"Donaustetten, Wasserturm","Wasserturm",1,,9.933029291486562,48.33158489495781
900172501,"Edisoncenter","Edisoncenter",0,9001725,10.00735789422746,48.37940003738445
900172502,"Edisoncenter","Edisoncenter",0,9001725,10.0072517540417,48.37931744342471
9001725,"Edisoncenter","Edisoncenter",1,,10.0072517540417,48.37931744342471
900117001,"Edith-Stein-Ring","Edith-Stein-Ring",0,9001170,9.993755357561279,48.44000483831287
900117002,"Edith-Stein-Ring","Edith-Stein-Ring",0,9001170,9.992865579627026,48.43976942426772
9001170,"Edith-Stein-Ring","Edith-Stein-Ring",1,,9.992865579627026,48.43976942426772
900108701,"Egertweg","Egertweg",0,9001087,10.0122730555556,48.4258608333333
900108702,"Egertweg","Egertweg",0,9001087,10.01214186623944,48.42611172533264
900108711,"Egertweg","Egertweg",0,9001087,10.01243145958003,48.42583404631533
900108712,"Egertweg","Egertweg",0,9001087,10.01232583400088,48.42560261706601
9001087,"Egertweg","Egertweg",1,,10.01232583400088,48.42560261706601
900138201,"Egginer Weg","Egginer Weg",0,9001382,9.96435944444444,48.3853802777778
9001382,"Egginer Weg","Egginer Weg",1,,9.96435944444444,48.3853802777778
900142201,"Eggingen, Rathaus","Rathaus",0,9001422,9.878812993949047,48.36370831262547
900142202,"Eggingen, Rathaus","Rathaus",0,9001422,9.8788375,48.36391833333331
9001422,"Eggingen, Rathaus","Rathaus",1,,9.8788375,48.36391833333331
900142101,"Eggingen, Ringinger Straße","Ringinger Straße",0,9001421,9.87963305555556,48.3610772222222
900142102,"Eggingen, Ringinger Straße","Ringinger Straße",0,9001421,9.87965361111111,48.3612286111111
9001421,"Eggingen, Ringinger Straße","Ringinger Straße",1,,9.87965361111111,48.3612286111111
900135001,"Ehinger Tor","Ehinger Tor",0,9001350,9.981080488878542,48.39468926470649
900135002,"Ehinger Tor","Ehinger Tor",0,9001350,9.981009651378216,48.39466508817159
900135003,"Ehinger Tor","Ehinger Tor",0,9001350,9.981180198009374,48.39471630245818
900135004,"Ehinger Tor","Ehinger Tor",0,9001350,9.980481399702594,48.39458055560518
900135011,"Ehinger Tor","Ehinger Tor",0,9001350,9.981080488878542,48.39468926470649
900135012,"Ehinger Tor","Ehinger Tor",0,9001350,9.981009651378216,48.39466508817159
9001350,"Ehinger Tor","Ehinger Tor",1,,9.981009651378216,48.39466508817159
900126601,"Ehrensteiner Feld","Ehrensteiner Feld",0,9001266,9.948501301434208,48.41136292997451
900126602,"Ehrensteiner Feld","Ehrensteiner Feld",0,9001266,9.947832222222219,48.41119944444441
9001266,"Ehrensteiner Feld","Ehrensteiner Feld",1,,9.947832222222219,48.41119944444441
900108101,"Eichberg","Eichberg",0,9001081,10.0058977777778,48.4234769444444
900108102,"Eichberg","Eichberg",0,9001081,10.0053641666667,48.4228113888889
9001081,"Eichberg","Eichberg",1,,10.0053641666667,48.4228113888889
900108201,"Eichberg Nord","Eichberg Nord",0,9001082,10.00761476543063,48.42659552557099
900108202,"Eichberg Nord","Eichberg Nord",0,9001082,10.00703770456804,48.42614686459905
9001082,"Eichberg Nord","Eichberg Nord",1,,10.00703770456804,48.42614686459905
900107901,"Eichenplatz","Eichenplatz",0,9001079,10.0041419444444,48.4201566666667
900107902,"Eichenplatz","Eichenplatz",0,9001079,10.0032022222222,48.4191294444444
9001079,"Eichenplatz","Eichenplatz",1,,10.0032022222222,48.4191294444444
900141203,"Einsingen, Ensostraße","Ensostraße",0,9001412,9.90596222222222,48.35250472222221
900141204,"Einsingen, Ensostraße","Ensostraße",0,9001412,9.90539861111111,48.3525736111111
9001412,"Einsingen, Ensostraße","Ensostraße",1,,9.90539861111111,48.3525736111111
900141303,"Einsingen, Hirsch","Hirsch",0,9001413,9.900359444444449,48.35278027777781
900141304,"Einsingen, Hirsch","Hirsch",0,9001413,9.900162222222219,48.35283944444441
9001413,"Einsingen, Hirsch","Hirsch",1,,9.900162222222219,48.35283944444441
900141403,"Einsingen, Kirche","Kirche",0,9001414,9.895130555555561,48.3539038888889
900141404,"Einsingen, Kirche","Kirche",0,9001414,9.894986111111111,48.3543452777778
9001414,"Einsingen, Kirche","Kirche",1,,9.894986111111111,48.3543452777778
900140301,"Eisenbahnstraße","Eisenbahnstraße",0,9001403,9.936991638627797,48.37040620976431
900140302,"Eisenbahnstraße","Eisenbahnstraße",0,9001403,9.93708611111111,48.3701763888889
9001403,"Eisenbahnstraße","Eisenbahnstraße",1,,9.93708611111111,48.3701763888889
900140401,"Erbacher Straße","Erbacher Straße",0,9001404,9.93983388888889,48.36712388888889
900140402,"Erbacher Straße","Erbacher Straße",0,9001404,9.939849519283623,48.36701062406299
9001404,"Erbacher Straße","Erbacher Straße",1,,9.939849519283623,48.36701062406299
900162001,"Erenlauh","Erenlauh",0,9001620,9.97109916666667,48.3584027777778
900162002,"Erenlauh","Erenlauh",0,9001620,9.971066826462598,48.35858905657432
9001620,"Erenlauh","Erenlauh",1,,9.971066826462598,48.35858905657432
900143101,"Ermingen, Allewind","Allewind",0,9001431,9.893747912700494,48.37660097054701
900143102,"Ermingen, Allewind","Allewind",0,9001431,9.891459722222219,48.3764644444444
9001431,"Ermingen, Allewind","Allewind",1,,9.891459722222219,48.3764644444444
900143201,"Ermingen, Panoramastraße","Panoramastraße",0,9001432,9.896228611111111,48.3781341666667
900143202,"Ermingen, Panoramastraße","Panoramastraße",0,9001432,9.896623140956857,48.37755357204376
9001432,"Ermingen, Panoramastraße","Panoramastraße",1,,9.896623140956857,48.37755357204376
900143301,"Ermingen, Waldstraße","Waldstraße",0,9001433,9.89777416666667,48.38196527777781
900143302,"Ermingen, Waldstraße","Waldstraße",0,9001433,9.897402222222221,48.3818813888889
9001433,"Ermingen, Waldstraße","Waldstraße",1,,9.897402222222221,48.3818813888889
900153901,"Ernst-Abbe-Straße","Ernst-Abbe-Straße",0,9001539,9.928821415968855,48.35262775808542
900153902,"Ernst-Abbe-Straße","Ernst-Abbe-Straße",0,9001539,9.928578466572215,48.35282664377527
9001539,"Ernst-Abbe-Straße","Ernst-Abbe-Straße",1,,9.928578466572215,48.35282664377527
900173201,"Escheugraben","Escheugraben",0,9001732,10.00525672709564,48.38810241513189
900173202,"Escheugraben","Escheugraben",0,9001732,10.0060536111111,48.3876563888889
9001732,"Escheugraben","Escheugraben",1,,10.0060536111111,48.3876563888889
900120001,"Eselsberg Hasenkopf","Eselsberg Hasenkopf",0,9001200,9.962991298532195,48.41435289636672
900120004,"Eselsberg Hasenkopf","Eselsberg Hasenkopf",0,9001200,9.96260638888889,48.41432750000001
900120005,"Eselsberg Hasenkopf","Eselsberg Hasenkopf",0,9001200,9.962843016663372,48.41453141555559
9001200,"Eselsberg Hasenkopf","Eselsberg Hasenkopf",1,,9.962843016663372,48.41453141555559
900108001,"Eugen-Bolz-Straße","Eugen-Bolz-Straße",0,9001080,10.01783515234633,48.42050686005524
900108002,"Eugen-Bolz-Straße","Eugen-Bolz-Straße",0,9001080,10.01851198195703,48.42117169141062
900108011,"Eugen-Bolz-Straße","Eugen-Bolz-Straße",0,9001080,10.0174694444444,48.42010750000001
900108012,"Eugen-Bolz-Straße","Eugen-Bolz-Straße",0,9001080,10.01735782866216,48.42007364830205
9001080,"Eugen-Bolz-Straße","Eugen-Bolz-Straße",1,,10.01735782866216,48.42007364830205
900174101,"Fachoberschule","Fachoberschule",0,9001741,10.0027861111111,48.38817055555559
900174102,"Fachoberschule","Fachoberschule",0,9001741,10.0026066666667,48.3881125
9001741,"Fachoberschule","Fachoberschule",1,,10.0026066666667,48.3881125
900116501,"Fichtenstraße","Fichtenstraße",0,9001165,9.991079715457161,48.44935885545788
900116502,"Fichtenstraße","Fichtenstraße",0,9001165,9.990820368792416,48.44944790646813
9001165,"Fichtenstraße","Fichtenstraße",1,,9.990820368792416,48.44944790646813
900154801,"Firma Meiller","Firma Meiller",0,9001548,9.93624638888889,48.36131388888889
900154802,"Firma Meiller","Firma Meiller",0,9001548,9.9361125,48.3615183333333
9001548,"Firma Meiller","Firma Meiller",1,,9.9361125,48.3615183333333
900155001,"Firma Nanz","Firma Nanz",0,9001550,9.94379305555556,48.3672063888889
900155002,"Firma Nanz","Firma Nanz",0,9001550,9.94381888888889,48.3671463888889
9001550,"Firma Nanz","Firma Nanz",1,,9.94381888888889,48.3671463888889
900155201,"Firma Rheinzink","Firma Rheinzink",0,9001552,9.925629166666671,48.3561802777778
900155202,"Firma Rheinzink","Firma Rheinzink",0,9001552,9.925446272577805,48.35602786788983
9001552,"Firma Rheinzink","Firma Rheinzink",1,,9.925446272577805,48.35602786788983
900159401,"Firma Seeberger","Firma Seeberger",0,9001594,9.950653859876059,48.35853838855793
900159402,"Firma Seeberger","Firma Seeberger",0,9001594,9.951793055555561,48.3592152777778
9001594,"Firma Seeberger","Firma Seeberger",1,,9.951793055555561,48.3592152777778
900155401,"Firma UPS","Firma UPS",0,9001554,9.92596138888889,48.35410916666671
900155402,"Firma UPS","Firma UPS",0,9001554,9.926313333333329,48.3539605555556
9001554,"Firma UPS","Firma UPS",1,,9.926313333333329,48.3539605555556
900155501,"Firma Wieland","Firma Wieland",0,9001555,9.94512388888889,48.35616083333329
900155502,"Firma Wieland","Firma Wieland",0,9001555,9.94423055555556,48.3565972222222
9001555,"Firma Wieland","Firma Wieland",1,,9.94423055555556,48.3565972222222
900162101,"Fischerhauser Weg","Fischerhauser Weg",0,9001621,9.97653053476083,48.36041551090199
900162102,"Fischerhauser Weg","Fischerhauser Weg",0,9001621,9.976465073498599,48.36055345323404
9001621,"Fischerhauser Weg","Fischerhauser Weg",1,,9.976465073498599,48.36055345323404
900134601,"Franz-Wiedemeier-Straße","Franz-Wiedemeier-Straße",0,9001346,9.936611111111111,48.39899249999999
900134602,"Franz-Wiedemeier-Straße","Franz-Wiedemeier-Straße",0,9001346,9.936822189755104,48.39892883977035
9001346,"Franz-Wiedemeier-Straße","Franz-Wiedemeier-Straße",1,,9.936822189755104,48.39892883977035
900116101,"Franzenhauserweg","Franzenhauserweg",0,9001161,9.985453888888889,48.42873
900116102,"Franzenhauserweg","Franzenhauserweg",0,9001161,9.985582830394812,48.42932348636344
9001161,"Franzenhauserweg","Franzenhauserweg",1,,9.985582830394812,48.42932348636344
900103101,"Frauensteige","Frauensteige",0,9001031,9.990390270028113,48.40965645498671
9001031,"Frauensteige","Frauensteige",1,,9.990390270028113,48.40965645498671
900102501,"Frauenstraße","Frauenstraße",0,9001025,9.99361055555555,48.4062038888889
900102502,"Frauenstraße","Frauenstraße",0,9001025,9.992765003937329,48.4067645158577
9001025,"Frauenstraße","Frauenstraße",1,,9.992765003937329,48.4067645158577
900134501,"Fünf-Bäume-Weg","Fünf-Bäume-Weg",0,9001345,9.948599526979884,48.39654915675911
900134502,"Fünf-Bäume-Weg","Fünf-Bäume-Weg",0,9001345,9.948807499999999,48.39640888888891
9001345,"Fünf-Bäume-Weg","Fünf-Bäume-Weg",1,,9.948807499999999,48.39640888888891
900132401,"Fünf-Bäume-Weg Mitte","Fünf-Bäume-Weg Mitte",0,9001324,9.94501972222222,48.3965033333333
9001324,"Fünf-Bäume-Weg Mitte","Fünf-Bäume-Weg Mitte",1,,9.94501972222222,48.3965033333333
900172301,"Gartenstraße","Gartenstraße",0,9001723,10.0002252838811,48.39246867247812
9001723,"Gartenstraße","Gartenstraße",1,,10.0002252838811,48.39246867247812
900152801,"Gasthof Donautal","Gasthof Donautal",0,9001528,9.955762172687413,48.37506259012022
900152802,"Gasthof Donautal","Gasthof Donautal",0,9001528,9.955280084641968,48.37509651201689
9001528,"Gasthof Donautal","Gasthof Donautal",1,,9.955280084641968,48.37509651201689
900116601,"Gehrnstraße","Gehrnstraße",0,9001166,9.992353545942233,48.44586177911796
900116602,"Gehrnstraße","Gehrnstraße",0,9001166,9.99238722222222,48.4458025
9001166,"Gehrnstraße","Gehrnstraße",1,,9.99238722222222,48.4458025
900138301,"Gewerbeschulen Königstraße","Gewerbeschulen Königstraße",0,9001383,9.96168472222222,48.3848927777778
900138302,"Gewerbeschulen Königstraße","Gewerbeschulen Königstraße",0,9001383,9.960199343749869,48.38460331158136
900138303,"Gewerbeschulen Königstraße","Gewerbeschulen Königstraße",0,9001383,9.960556181631713,48.38538851554517
900138304,"Gewerbeschulen Königstraße","Gewerbeschulen Königstraße",0,9001383,9.960482476120959,48.38537368805499
9001383,"Gewerbeschulen Königstraße","Gewerbeschulen Königstraße",1,,9.960482476120959,48.38537368805499
900132301,"Gleißelstetten","Gleißelstetten",0,9001323,9.94797472222222,48.38806916666671
900132302,"Gleißelstetten","Gleißelstetten",0,9001323,9.94709583333333,48.3877536111111
9001323,"Gleißelstetten","Gleißelstetten",1,,9.94709583333333,48.3877536111111
900156101,"Graf-Arco-Straße","Graf-Arco-Straße",0,9001561,9.942570555555561,48.3583911111111
900156102,"Graf-Arco-Straße","Graf-Arco-Straße",0,9001561,9.942441666666671,48.3576583333333
900156103,"Graf-Arco-Straße","Graf-Arco-Straße",0,9001561,9.941526367481339,48.35828714318952
9001561,"Graf-Arco-Straße","Graf-Arco-Straße",1,,9.941526367481339,48.35828714318952
900100601,"Gänsturm","Gänsturm",0,9001006,10.0010308333333,48.3988852777778
900100602,"Gänsturm","Gänsturm",0,9001006,10.0009855555556,48.3987147222222
9001006,"Gänsturm","Gänsturm",1,,10.0009855555556,48.3987147222222
900165203,"Gögglingen, Hoher Berg","Hoher Berg",0,9001652,9.939150341315401,48.33870337119886
900165204,"Gögglingen, Hoher Berg","Hoher Berg",0,9001652,9.939185395376356,48.33850415718551
9001652,"Gögglingen, Hoher Berg","Hoher Berg",1,,9.939185395376356,48.33850415718551
900165302,"Gögglingen, Riedlenstraße","Riedlenstraße",0,9001653,9.936715,48.33487
9001653,"Gögglingen, Riedlenstraße","Riedlenstraße",1,,9.936715,48.33487
900165101,"Gögglingen, Zollbrücke","Zollbrücke",0,9001651,9.941679111522575,48.3431526066237
900165102,"Gögglingen, Zollbrücke","Zollbrücke",0,9001651,9.941032789258886,48.34265966593386
9001651,"Gögglingen, Zollbrücke","Zollbrücke",1,,9.941032789258886,48.34265966593386
900100901,"Hafengasse","Hafengasse",0,9001009,9.996296807022878,48.39851110397265
900100902,"Hafengasse","Hafengasse",0,9001009,9.996080981249584,48.39842209711479
9001009,"Hafengasse","Hafengasse",1,,9.996080981249584,48.39842209711479
900176801,"Hafnerweg","Hafnerweg",0,9001768,10.01786929322746,48.36643259604925
900176802,"Hafnerweg","Hafnerweg",0,9001768,10.0181247222222,48.3661166666667
9001768,"Hafnerweg","Hafnerweg",1,,10.0181247222222,48.3661166666667
900154001,"Hans-Lorenser-Straße","Hans-Lorenser-Straße",0,9001540,9.93803916666667,48.3486775
9001540,"Hans-Lorenser-Straße","Hans-Lorenser-Straße",1,,9.93803916666667,48.3486775
900145101,"Harthausen, Kirche","Kirche",0,9001451,9.91422083333333,48.3907552777778
900145102,"Harthausen, Kirche","Kirche",0,9001451,9.914173795826351,48.39067682062943
9001451,"Harthausen, Kirche","Kirche",1,,9.914173795826351,48.39067682062943
900176501,"Hasenweg","Hasenweg",0,9001765,10.0107775,48.3669058333333
9001765,"Hasenweg","Hasenweg",1,,10.0107775,48.3669058333333
900107401,"Haslacher Weg","Haslacher Weg",0,9001074,10.01519928445312,48.43111340210732
900107402,"Haslacher Weg","Haslacher Weg",0,9001074,10.01373472146152,48.42986095296121
900107411,"Haslacher Weg","Haslacher Weg",0,9001074,10.0139492570969,48.43024371639812
900107412,"Haslacher Weg","Haslacher Weg",0,9001074,10.01379566966484,48.43011671263692
9001074,"Haslacher Weg","Haslacher Weg",1,,10.01379566966484,48.43011671263692
900100801,"Hauptbahnhof","Hauptbahnhof",0,9001008,9.984227685539761,48.39933110967035
900100802,"Hauptbahnhof","Hauptbahnhof",0,9001008,9.984161287452473,48.39936560105807
900100811,"Hauptbahnhof","Hauptbahnhof",0,9001008,9.984227685539761,48.39933110967035
900100812,"Hauptbahnhof","Hauptbahnhof",0,9001008,9.984161287452473,48.39936560105807
9001008,"Hauptbahnhof","Hauptbahnhof",1,,9.984161287452473,48.39936560105807
900100501,"Haus der Begegnung","Haus der Begegnung",0,9001005,9.998107792085069,48.39774424001362
900100502,"Haus der Begegnung","Haus der Begegnung",0,9001005,9.998247190081415,48.39766448019246
9001005,"Haus der Begegnung","Haus der Begegnung",1,,9.998247190081415,48.39766448019246
900135901,"Haßlerstraße","Haßlerstraße",0,9001359,9.97761777777778,48.38965361111111
900135902,"Haßlerstraße","Haßlerstraße",0,9001359,9.97882166666667,48.3904411111111
900135903,"Haßlerstraße","Haßlerstraße",0,9001359,9.97862138888889,48.3893241666667
900135904,"Haßlerstraße","Haßlerstraße",0,9001359,9.97806722222222,48.3884594444444
900135905,"Haßlerstraße","Haßlerstraße",0,9001359,9.977610857051555,48.38914864732075
9001359,"Haßlerstraße","Haßlerstraße",1,,9.977610857051555,48.38914864732075
900125501,"Heilmeyersteige","Heilmeyersteige",0,9001255,9.950054171573303,48.41386777741374
900125502,"Heilmeyersteige","Heilmeyersteige",0,9001255,9.950747228088622,48.41351186515919
9001255,"Heilmeyersteige","Heilmeyersteige",1,,9.950747228088622,48.41351186515919
900101501,"Herdbrücke","Herdbrücke",0,9001015,9.995872028634633,48.39652066733834
900101502,"Herdbrücke","Herdbrücke",0,9001015,9.995763661593832,48.39644470580261
9001015,"Herdbrücke","Herdbrücke",1,,9.995763661593832,48.39644470580261
900272802,"Herrlingen, Bahnhof","Bahnhof",0,9002728,9.897888865207268,48.41835247724121
9002728,"Herrlingen, Bahnhof","Bahnhof",1,,9.897888865207268,48.41835247724121
900150301,"Heuweg","Heuweg",0,9001503,9.952010277777781,48.3645816666667
900150302,"Heuweg","Heuweg",0,9001503,9.952117222222221,48.36485166666671
9001503,"Heuweg","Heuweg",1,,9.952117222222221,48.36485166666671
900124801,"Hochschule Eselsberg","Hochschule Eselsberg",0,9001248,9.937826111111111,48.4187752777778
900124802,"Hochschule Eselsberg","Hochschule Eselsberg",0,9001248,9.93825861111111,48.4187294444444
9001248,"Hochschule Eselsberg","Hochschule Eselsberg",1,,9.93825861111111,48.4187294444444
900140101,"Häberlinweg","Häberlinweg",0,9001401,9.94107305555556,48.3730961111111
900140102,"Häberlinweg","Häberlinweg",0,9001401,9.940985467858068,48.37311296388843
9001401,"Häberlinweg","Häberlinweg",1,,9.940985467858068,48.37311296388843
900116001,"Hörverlsinger Weg","Hörverlsinger Weg",0,9001160,9.986361666666671,48.4260036111111
900116002,"Hörverlsinger Weg","Hörverlsinger Weg",0,9001160,9.98604527777778,48.42546666666671
9001160,"Hörverlsinger Weg","Hörverlsinger Weg",1,,9.98604527777778,48.42546666666671
900170401,"Illerbrücke","Illerbrücke",0,9001704,9.989574706981436,48.3725564960879
900170402,"Illerbrücke","Illerbrücke",0,9001704,9.989585277777779,48.3727016666667
9001704,"Illerbrücke","Illerbrücke",1,,9.989585277777779,48.3727016666667
900157401,"IVECO","IVECO",0,9001574,9.92957083333333,48.35982805555561
900157402,"IVECO","IVECO",0,9001574,9.929205392343473,48.35964536998087
9001574,"IVECO","IVECO",1,,9.929205392343473,48.35964536998087
900170301,"Jakobsruhe","Jakobsruhe",0,9001703,9.990231388888891,48.38142250000001
900170302,"Jakobsruhe","Jakobsruhe",0,9001703,9.989469101986888,48.38185808584883
9001703,"Jakobsruhe","Jakobsruhe",1,,9.989469101986888,48.38185808584883
900110301,"Junginger Straße","Junginger Straße",0,9001103,9.97212777777778,48.4366013888889
900110302,"Junginger Straße","Junginger Straße",0,9001103,9.971687771032659,48.4361622923042
9001103,"Junginger Straße","Junginger Straße",1,,9.971687771032659,48.4361622923042
900101101,"Justizgebäude","Justizgebäude",0,9001011,9.992943333333329,48.4019483333333
900101102,"Justizgebäude","Justizgebäude",0,9001011,9.992832222222219,48.4019797222222
900101103,"Justizgebäude","Justizgebäude",0,9001011,9.9920977865119,48.40196290610962
900101111,"Justizgebäude","Justizgebäude",0,9001011,9.992943333333329,48.4019483333333
900101112,"Justizgebäude","Justizgebäude",0,9001011,9.992832222222219,48.4019797222222
9001011,"Justizgebäude","Justizgebäude",1,,9.992832222222219,48.4019797222222
900134901,"Jägerstraße","Jägerstraße",0,9001349,9.95564888888889,48.4001677777778
900134902,"Jägerstraße","Jägerstraße",0,9001349,9.9555025,48.4001313888889
9001349,"Jägerstraße","Jägerstraße",1,,9.9555025,48.4001313888889
900138402,"Jörg-Syrlin-Schule","Jörg-Syrlin-Schule",0,9001384,9.963500724404941,48.3876030685277
9001384,"Jörg-Syrlin-Schule","Jörg-Syrlin-Schule",1,,9.963500724404941,48.3876030685277
900160501,"Kapelle","Kapelle",0,9001605,9.983418037865297,48.36048331684928
900160502,"Kapelle","Kapelle",0,9001605,9.984253830691905,48.36055660741001
9001605,"Kapelle","Kapelle",1,,9.984253830691905,48.36055660741001
900171401,"Kasernstraße","Kasernstraße",0,9001714,10.0065355349685,48.39673445911962
900171402,"Kasernstraße","Kasernstraße",0,9001714,10.00702683185203,48.39661074796732
9001714,"Kasernstraße","Kasernstraße",1,,10.00702683185203,48.39661074796732
900159001,"Kastbrücke","Kastbrücke",0,9001590,9.962879667714367,48.36196612223875
900159002,"Kastbrücke","Kastbrücke",0,9001590,9.962692511475019,48.36177749662496
9001590,"Kastbrücke","Kastbrücke",1,,9.962692511475019,48.36177749662496
900176601,"Katholische kirche","Katholische kirche",0,9001766,10.0136552777778,48.3672363888889
9001766,"Katholische kirche","Katholische kirche",1,,10.0136552777778,48.3672363888889
900125101,"Kelternweg","Kelternweg",0,9001251,9.959964444621662,48.41336734945111
900125102,"Kelternweg","Kelternweg",0,9001251,9.960236388888889,48.41359499999999
9001251,"Kelternweg","Kelternweg",1,,9.960236388888889,48.41359499999999
900163201,"Kemptener Straße","Kemptener Straße",0,9001632,9.972927470151021,48.34649369329096
900163202,"Kemptener Straße","Kemptener Straße",0,9001632,9.972956572215939,48.34644960668124
9001632,"Kemptener Straße","Kemptener Straße",1,,9.972956572215939,48.34644960668124
900103001,"Kliniken Michelsberg","Kliniken Michelsberg",0,9001030,9.992146671436128,48.41134928579785
900103002,"Kliniken Michelsberg","Kliniken Michelsberg",0,9001030,9.992270807558651,48.41127985669188
9001030,"Kliniken Michelsberg","Kliniken Michelsberg",1,,9.992270807558651,48.41127985669188
900124501,"Kliniken Wissenschaftsstadt","Kliniken Wissenschaftsstadt",0,9001245,9.94950638888889,48.42345333333329
900124502,"Kliniken Wissenschaftsstadt","Kliniken Wissenschaftsstadt",0,9001245,9.95003472222222,48.4235488888889
9001245,"Kliniken Wissenschaftsstadt","Kliniken Wissenschaftsstadt",1,,9.95003472222222,48.4235488888889
900139001,"Kuhberg Schulzentrum","Kuhberg Schulzentrum",0,9001390,9.954546666666671,48.3834022222222
900139002,"Kuhberg Schulzentrum","Kuhberg Schulzentrum",0,9001390,9.956396989318854,48.38356893339217
9001390,"Kuhberg Schulzentrum","Kuhberg Schulzentrum",1,,9.956396989318854,48.38356893339217
900131101,"Königstraße","Königstraße",0,9001311,9.96123083333333,48.3944605555556
900131102,"Königstraße","Königstraße",0,9001311,9.961090379883206,48.39451979241851
900131111,"Königstraße","Königstraße",0,9001311,9.96123083333333,48.3944605555556
900131112,"Königstraße","Königstraße",0,9001311,9.961090379883206,48.39451979241851
9001311,"Königstraße","Königstraße",1,,9.961090379883206,48.39451979241851
900123201,"Lehrer Tal","Lehrer Tal",0,9001232,9.976780813438333,48.40660531457191
900123202,"Lehrer Tal","Lehrer Tal",0,9001232,9.97379099134519,48.4064681028772
900123204,"Lehrer Tal","Lehrer Tal",0,9001232,9.976190807643473,48.40645016164068
9001232,"Lehrer Tal","Lehrer Tal",1,,9.976190807643473,48.40645016164068
900132201,"Leonberger Weg","Leonberger Weg",0,9001322,9.949445000000001,48.39182416666671
900132202,"Leonberger Weg","Leonberger Weg",0,9001322,9.949498502734063,48.39185715651332
900132203,"Leonberger Weg","Leonberger Weg",0,9001322,9.950218569646978,48.3918256875389
9001322,"Leonberger Weg","Leonberger Weg",1,,9.950218569646978,48.3918256875389
900187104,"Lessingstraße","Lessingstraße",0,9001871,10.02466944444445,48.39673055555556
900187105,"Lessingstraße","Lessingstraße",0,9001871,10.0256,48.3969
9001871,"Lessingstraße","Lessingstraße",1,,10.0256,48.3969
900139601,"Lindenhöhe","Lindenhöhe",0,9001396,9.947187587431106,48.37671663742955
900139602,"Lindenhöhe","Lindenhöhe",0,9001396,9.947437679387591,48.37693961980089
9001396,"Lindenhöhe","Lindenhöhe",1,,9.947437679387591,48.37693961980089
900125401,"Lise-Meitner-Straße","Lise-Meitner-Straße",0,9001254,9.934935789455956,48.4187576869459
900125402,"Lise-Meitner-Straße","Lise-Meitner-Straße",0,9001254,9.93525472222222,48.4187977777778
9001254,"Lise-Meitner-Straße","Lise-Meitner-Straße",1,,9.93525472222222,48.4187977777778
900150101,"Liststraße","Liststraße",0,9001501,9.949129124150602,48.36969340408997
900150102,"Liststraße","Liststraße",0,9001501,9.949088422832826,48.36967346968475
9001501,"Liststraße","Liststraße",1,,9.949088422832826,48.36967346968475
900110201,"Loherstraße","Loherstraße",0,9001102,9.969212279037748,48.43220233125378
900110202,"Loherstraße","Loherstraße",0,9001102,9.968699856725067,48.4327460566766
9001102,"Loherstraße","Loherstraße",1,,9.968699856725067,48.4327460566766
900107801,"Ludwig-Beck-Straße","Ludwig-Beck-Straße",0,9001078,10.00714153525441,48.42218491270057
900107802,"Ludwig-Beck-Straße","Ludwig-Beck-Straße",0,9001078,10.00689393325556,48.42208509519514
9001078,"Ludwig-Beck-Straße","Ludwig-Beck-Straße",1,,10.00689393325556,48.42208509519514
900121801,"Lupferbrücke","Lupferbrücke",0,9001218,9.95687222222222,48.40357777777779
900121802,"Lupferbrücke","Lupferbrücke",0,9001218,9.956677988630654,48.40358552198731
9001218,"Lupferbrücke","Lupferbrücke",1,,9.956677988630654,48.40358552198731
900135301,"Magirusstraße","Magirusstraße",0,9001353,9.963877025145989,48.3944323770676
900135311,"Magirusstraße","Magirusstraße",0,9001353,9.963877025145989,48.3944323770676
900135302,"Magirusstraße","Magirusstraße",0,9001353,9.964674759624243,48.39444972349235
900135312,"Magirusstraße","Magirusstraße",0,9001353,9.964674759624243,48.39444972349235
9001353,"Magirusstraße","Magirusstraße",1,,9.964674759624243,48.39444972349235
900133201,"Maienweg","Maienweg",0,9001332,9.948610555555559,48.38975722222221
900133202,"Maienweg","Maienweg",0,9001332,9.948664166666671,48.3896572222222
9001332,"Maienweg","Maienweg",1,,9.948664166666671,48.3896572222222
900132501,"Maienweg Nord","Maienweg Nord",0,9001325,9.94570666666667,48.39481777777781
9001325,"Maienweg Nord","Maienweg Nord",1,,9.94570666666667,48.39481777777781
900124701,"Manfred-Börner-Straße","Manfred-Börner-Straße",0,9001247,9.94272,48.41977333333331
900124702,"Manfred-Börner-Straße","Manfred-Börner-Straße",0,9001247,9.94275357911987,48.41974376326387
900124703,"Manfred-Börner-Straße","Manfred-Börner-Straße",0,9001247,9.943180555555555,48.41996944444444
9001247,"Manfred-Börner-Straße","Manfred-Börner-Straße",1,,9.943180555555555,48.41996944444444
900117101,"Margarete-Steiff-Weg","Margarete-Steiff-Weg",0,9001171,9.99666970033141,48.44175368727537
900117102,"Margarete-Steiff-Weg","Margarete-Steiff-Weg",0,9001171,9.996375588298221,48.4413734647586
9001171,"Margarete-Steiff-Weg","Margarete-Steiff-Weg",1,,9.996375588298221,48.4413734647586
900173501,"Marlene-Dietrich-Straße","Marlene-Dietrich-Straße",0,9001735,10.0087355555556,48.38496
900173502,"Marlene-Dietrich-Straße","Marlene-Dietrich-Straße",0,9001735,10.0086752777778,48.3850094444444
9001735,"Marlene-Dietrich-Straße","Marlene-Dietrich-Straße",1,,10.0086752777778,48.3850094444444
900150401,"Maybachstraße","Maybachstraße",0,9001504,9.94677861111111,48.3615141666667
900150402,"Maybachstraße","Maybachstraße",0,9001504,9.946275277777779,48.3612808333333
9001504,"Maybachstraße","Maybachstraße",1,,9.946275277777779,48.3612808333333
900107201,"Mecklenburgweg","Mecklenburgweg",0,9001072,10.02476694708476,48.43450821169791
900107202,"Mecklenburgweg","Mecklenburgweg",0,9001072,10.02435844605532,48.43450340249139
900107211,"Mecklenburgweg","Mecklenburgweg",0,9001072,10.02386363357815,48.43445040986109
900107212,"Mecklenburgweg","Mecklenburgweg",0,9001072,10.02384346999574,48.43447759292801
9001072,"Mecklenburgweg","Mecklenburgweg",1,,10.02384346999574,48.43447759292801
900172901,"Meininger Allee","Meininger Allee",0,9001729,10.00818363789105,48.39479421001315
900172902,"Meininger Allee","Meininger Allee",0,9001729,10.00845208067144,48.39488743149613
9001729,"Meininger Allee","Meininger Allee",1,,10.00845208067144,48.39488743149613
900172401,"Memminger Straße","Memminger Straße",0,9001724,10.0041316666667,48.3850272222222
900172402,"Memminger Straße","Memminger Straße",0,9001724,10.00375817942823,48.38533760573016
9001724,"Memminger Straße","Memminger Straße",1,,10.00375817942823,48.38533760573016
900120204,"Multscherschule","Multscherschule",0,9001202,9.966643593521118,48.40860765299748
9001202,"Multscherschule","Multscherschule",1,,9.966643593521118,48.40860765299748
900113101,"Mähringen, Ulmer Steige","Ulmer Steige",0,9001131,9.94406694444444,48.4353838888889
9001131,"Mähringen, Ulmer Steige","Ulmer Steige",1,,9.94406694444444,48.4353838888889
900110101,"Mähringer Straße","Mähringer Straße",0,9001101,9.96734722222222,48.432175
9001101,"Mähringer Straße","Mähringer Straße",1,,9.96734722222222,48.432175
900174301,"Neue Hochschule","Neue Hochschule",0,9001743,10.00869,48.3795288888889
900174302,"Neue Hochschule","Neue Hochschule",0,9001743,10.0091933333333,48.3795605555556
9001743,"Neue Hochschule","Neue Hochschule",1,,10.0091933333333,48.3795605555556
900104401,"Neuer Friedhof","Neuer Friedhof",0,9001044,9.986787222222221,48.4157188888889
900104402,"Neuer Friedhof","Neuer Friedhof",0,9001044,9.986532499999999,48.4157891666667
9001044,"Neuer Friedhof","Neuer Friedhof",1,,9.986532499999999,48.4157891666667
900129601,"Neunkirchenweg","Neunkirchenweg",0,9001296,9.959851534157941,48.38642794843743
900129602,"Neunkirchenweg","Neunkirchenweg",0,9001296,9.959879857273135,48.38632166817228
9001296,"Neunkirchenweg","Neunkirchenweg",1,,9.959879857273135,48.38632166817228
900139103,"Oberer Kuhberg","Oberer Kuhberg",0,9001391,9.95305786529763,48.38179560384747
900139104,"Oberer Kuhberg","Oberer Kuhberg",0,9001391,9.95300833333333,48.38184250000001
9001391,"Oberer Kuhberg","Oberer Kuhberg",1,,9.95300833333333,48.38184250000001
900132901,"Oberer Roter Berg","Oberer Roter Berg",0,9001329,9.935337039130383,48.40141627304114
9001329,"Oberer Roter Berg","Oberer Roter Berg",1,,9.935337039130383,48.40141627304114
900160101,"Oberer Wirt","Oberer Wirt",0,9001601,9.98546972222222,48.35582666666669
900160102,"Oberer Wirt","Oberer Wirt",0,9001601,9.986388055555549,48.3565363888889
9001601,"Oberer Wirt","Oberer Wirt",1,,9.986388055555549,48.3565363888889
900177101,"Oberfeld","Oberfeld",0,9001771,10.0110202777778,48.3640155555556
9001771,"Oberfeld","Oberfeld",1,,10.0110202777778,48.3640155555556
900190401,"Offenhausen, Grundweg","Grundweg",0,9001904,10.02283285470967,48.403583520915
900190402,"Offenhausen, Grundweg","Grundweg",0,9001904,10.02336899715053,48.40359332237969
9001904,"Offenhausen, Grundweg","Grundweg",1,,10.02336899715053,48.40359332237969
900190301,"Offenhausen, Ortsstraße","Ortsstraße",0,9001903,10.02247728368568,48.40207331004728
900190302,"Offenhausen, Ortsstraße","Ortsstraße",0,9001903,10.02259330756962,48.40192020863966
9001903,"Offenhausen, Ortsstraße","Ortsstraße",1,,10.02259330756962,48.40192020863966
900190601,"Offenhausen, Roseggerstraße","Roseggerstraße",0,9001906,10.02464496123268,48.40173890231643
900190602,"Offenhausen, Roseggerstraße","Roseggerstraße",0,9001906,10.02390709504869,48.40164932572519
9001906,"Offenhausen, Roseggerstraße","Roseggerstraße",1,,10.02390709504869,48.40164932572519
900160801,"Ostermahdweg","Ostermahdweg",0,9001608,9.990912222222221,48.3654222222222
900160802,"Ostermahdweg","Ostermahdweg",0,9001608,9.99054416666667,48.3645825
9001608,"Ostermahdweg","Ostermahdweg",1,,9.99054416666667,48.3645825
900105801,"Ostplatz","Ostplatz",0,9001058,10.00116994472726,48.40599406044587
900105802,"Ostplatz","Ostplatz",0,9001058,10.0018527777778,48.40571361111111
9001058,"Ostplatz","Ostplatz",1,,10.0018527777778,48.40571361111111
900107001,"Ostpreußenweg","Ostpreußenweg",0,9001070,10.03061694104763,48.43415529529269
900107011,"Ostpreußenweg","Ostpreußenweg",0,9001070,10.03041531410817,48.43435404540307
9001070,"Ostpreußenweg","Ostpreußenweg",1,,10.03041531410817,48.43435404540307
900130101,"Ottiliengasse","Ottiliengasse",0,9001301,9.955611676070644,48.39686363250888
900130102,"Ottiliengasse","Ottiliengasse",0,9001301,9.95551138888889,48.3966844444444
9001301,"Ottiliengasse","Ottiliengasse",1,,9.95551138888889,48.3966844444444
900100401,"Pauluskirche","Pauluskirche",0,9001004,9.994943231792936,48.40488925835029
900100402,"Pauluskirche","Pauluskirche",0,9001004,9.994981731872002,48.40493927529644
9001004,"Pauluskirche","Pauluskirche",1,,9.994981731872002,48.40493927529644
900170801,"Petrusplatz","Petrusplatz",0,9001708,9.998101669984983,48.39471759954858
900170802,"Petrusplatz","Petrusplatz",0,9001708,9.998274843983984,48.39458603558515
9001708,"Petrusplatz","Petrusplatz",1,,9.998274843983984,48.39458603558515
900193601,"Pfuhl, Altes Rathaus","Altes Rathaus",0,9001936,10.0397775000046,48.41022937209247
900193602,"Pfuhl, Altes Rathaus","Altes Rathaus",0,9001936,10.03984704467368,48.41021865558461
9001936,"Pfuhl, Altes Rathaus","Altes Rathaus",1,,10.03984704467368,48.41021865558461
900193401,"Pfuhl, Kirchstraße","Kirchstraße",0,9001934,10.0422013888889,48.4078952777778
9001934,"Pfuhl, Kirchstraße","Kirchstraße",1,,10.0422013888889,48.4078952777778
900193301,"Pfuhl, Leipheimer Straße","Leipheimer Straße",0,9001933,10.04687802530455,48.4072909186817
9001933,"Pfuhl, Leipheimer Straße","Leipheimer Straße",1,,10.04687802530455,48.4072909186817
900193701,"Pfuhl, Platzgasse","Platzgasse",0,9001937,10.0354477777778,48.4085977777778
900193702,"Pfuhl, Platzgasse","Platzgasse",0,9001937,10.0350533333333,48.40819333333329
9001937,"Pfuhl, Platzgasse","Platzgasse",1,,10.0350533333333,48.40819333333329
900194202,"Pfuhl, Schulzentrum","Schulzentrum",0,9001942,10.05384290188994,48.41422772646598
9001942,"Pfuhl, Schulzentrum","Schulzentrum",1,,10.05384290188994,48.41422772646598
900193801,"Pfuhl, Stauffenbergstraße","Stauffenbergstraße",0,9001938,10.0303686111111,48.40560916666671
900193802,"Pfuhl, Stauffenbergstraße","Stauffenbergstraße",0,9001938,10.03067925123074,48.40568318762383
9001938,"Pfuhl, Stauffenbergstraße","Stauffenbergstraße",1,,10.03067925123074,48.40568318762383
900193901,"Pfuhl, Trissionplatz","Trissionplatz",0,9001939,10.03290975701458,48.40678299479671
900193902,"Pfuhl, Trissionplatz","Trissionplatz",0,9001939,10.03304725586085,48.40683304887671
9001939,"Pfuhl, Trissionplatz","Trissionplatz",1,,10.03304725586085,48.40683304887671
900194002,"Pfuhl, Winterstraße","Winterstraße",0,9001940,10.0437536111111,48.4118383333333
9001940,"Pfuhl, Winterstraße","Winterstraße",1,,10.0437536111111,48.4118383333333
900160001,"Pranger","Pranger",0,9001600,9.98832689490693,48.36093001669055
900160002,"Pranger","Pranger",0,9001600,9.98817972222222,48.36092500000001
900160003,"Pranger","Pranger",0,9001600,9.988589711822719,48.36019609418901
9001600,"Pranger","Pranger",1,,9.988589711822719,48.36019609418901
900116301,"Rathaus Jungingen","Rathaus Jungingen",0,9001163,9.986574166666671,48.4428952777778
900116302,"Rathaus Jungingen","Rathaus Jungingen",0,9001163,9.98679111111111,48.4428138888889
9001163,"Rathaus Jungingen","Rathaus Jungingen",1,,9.98679111111111,48.4428138888889
900171001,"Rathaus Neu-Ulm","Rathaus Neu-Ulm",0,9001710,10.00067917002357,48.39512892161455
900171002,"Rathaus Neu-Ulm","Rathaus Neu-Ulm",0,9001710,10.000725,48.3950422222222
9001710,"Rathaus Neu-Ulm","Rathaus Neu-Ulm",1,,10.000725,48.3950422222222
900100201,"Rathaus Ulm","Rathaus Ulm",0,9001002,9.992865682359689,48.39749512564774
900100202,"Rathaus Ulm","Rathaus Ulm",0,9001002,9.994130447261158,48.3976179276139
9001002,"Rathaus Ulm","Rathaus Ulm",1,,9.994130447261158,48.3976179276139
900140001,"Rathausstraße","Rathausstraße",0,9001400,9.936429740770713,48.37191141658287
900140002,"Rathausstraße","Rathausstraße",0,9001400,9.93589861111111,48.3718797222222
9001400,"Rathausstraße","Rathausstraße",1,,9.93589861111111,48.3718797222222
900154901,"Ratiopharm","Ratiopharm",0,9001549,9.938338453233618,48.3600745505931
900154902,"Ratiopharm","Ratiopharm",0,9001549,9.938529398727333,48.36007459053311
9001549,"Ratiopharm","Ratiopharm",1,,9.938529398727333,48.36007459053311
900176901,"Reichenberger Straße","Reichenberger Straße",0,9001769,10.01483362063498,48.36963282799821
900176902,"Reichenberger Straße","Reichenberger Straße",0,9001769,10.01521,48.3689986111111
9001769,"Reichenberger Straße","Reichenberger Straße",1,,10.01521,48.3689986111111
900163501,"Reutlinger Straße","Reutlinger Straße",0,9001635,9.970113888888889,48.35455
900163502,"Reutlinger Straße","Reutlinger Straße",0,9001635,9.970038611111111,48.3544880555556
9001635,"Reutlinger Straße","Reutlinger Straße",1,,9.970038611111111,48.3544880555556
900173301,"Riedstraße","Riedstraße",0,9001733,10.01022822908093,48.38796941591895
900173302,"Riedstraße","Riedstraße",0,9001733,10.0099077777778,48.3879094444444
9001733,"Riedstraße","Riedstraße",1,,10.0099077777778,48.3879094444444
900134001,"Riedwiesenweg","Riedwiesenweg",0,9001340,9.94514027777778,48.4018511111111
900134002,"Riedwiesenweg","Riedwiesenweg",0,9001340,9.945477610869418,48.40180027364983
9001340,"Riedwiesenweg","Riedwiesenweg",1,,9.945477610869418,48.40180027364983
900138101,"Robert-Dick-Weg","Robert-Dick-Weg",0,9001381,9.96690111111111,48.3860513888889
9001381,"Robert-Dick-Weg","Robert-Dick-Weg",1,,9.96690111111111,48.3860513888889
900135801,"Roncallihaus","Roncallihaus",0,9001358,9.974789919537795,48.39548053211451
9001358,"Roncallihaus","Roncallihaus",1,,9.974789919537795,48.39548053211451
900100301,"Rosengasse","Rosengasse",0,9001003,9.996823888888891,48.4003733333333
900100302,"Rosengasse","Rosengasse",0,9001003,9.99677833333333,48.40074861111109
9001003,"Rosengasse","Rosengasse",1,,9.99677833333333,48.40074861111109
900126001,"Ruländerweg","Ruländerweg",0,9001260,9.955998341829256,48.40836035732917
900126002,"Ruländerweg","Ruländerweg",0,9001260,9.955948207449808,48.40835534114653
9001260,"Ruländerweg","Ruländerweg",1,,9.955948207449808,48.40835534114653
900136001,"Römerplatz","Römerplatz",0,9001360,9.975317499999999,48.3903736111111
900136002,"Römerplatz","Römerplatz",0,9001360,9.974283888888889,48.39021277777779
9001360,"Römerplatz","Römerplatz",1,,9.974283888888889,48.39021277777779
900138001,"Saarlandstraße","Saarlandstraße",0,9001380,9.970732652514524,48.38801571253207
900138004,"Saarlandstraße","Saarlandstraße",0,9001380,9.970565630476365,48.38843237141054
9001380,"Saarlandstraße","Saarlandstraße",1,,9.970565630476365,48.38843237141054
900106001,"Safranberg","Safranberg",0,9001060,10.0031894444444,48.4124702777778
900106002,"Safranberg","Safranberg",0,9001060,10.0017741666667,48.4129013888889
9001060,"Safranberg","Safranberg",1,,10.0017741666667,48.4129013888889
900163301,"Saulgauer Straße","Saulgauer Straße",0,9001633,9.968435151145872,48.34825698495565
900163302,"Saulgauer Straße","Saulgauer Straße",0,9001633,9.968296813156368,48.34831894550231
9001633,"Saulgauer Straße","Saulgauer Straße",1,,9.968296813156368,48.34831894550231
900103201,"Schillerhöhe","Schillerhöhe",0,9001032,9.98894972222222,48.4081488888889
900103202,"Schillerhöhe","Schillerhöhe",0,9001032,9.988131368200325,48.40771597525233
9001032,"Schillerhöhe","Schillerhöhe",1,,9.988131368200325,48.40771597525233
900132101,"Schongauer Weg","Schongauer Weg",0,9001321,9.94841222222222,48.3934766666667
900132102,"Schongauer Weg","Schongauer Weg",0,9001321,9.948500000000001,48.39341944444444
9001321,"Schongauer Weg","Schongauer Weg",1,,9.948500000000001,48.39341944444444
900116401,"Schwarzenbergstraße","Schwarzenbergstraße",0,9001164,9.986936388888889,48.4488636111111
900116402,"Schwarzenbergstraße","Schwarzenbergstraße",0,9001164,9.98581861111111,48.44871999999999
9001164,"Schwarzenbergstraße","Schwarzenbergstraße",1,,9.98581861111111,48.44871999999999
900170601,"Schützenstraße","Schützenstraße",0,9001706,9.9974875,48.3936061111111
9001706,"Schützenstraße","Schützenstraße",1,,9.9974875,48.3936061111111
900124901,"Science Park II","Science Park II",0,9001249,9.937642500000001,48.4246883333333
900124902,"Science Park II","Science Park II",0,9001249,9.93680416666667,48.42435111111111
9001249,"Science Park II","Science Park II",1,,9.93680416666667,48.42435111111111
900129901,"Sedanstraße","Sedanstraße",0,9001299,9.960360828908074,48.39218095899915
900129902,"Sedanstraße","Sedanstraße",0,9001299,9.960278674963467,48.39214461182262
9001299,"Sedanstraße","Sedanstraße",1,,9.960278674963467,48.39214461182262
900153201,"Siemensstraße","Siemensstraße",0,9001532,9.954979277923615,48.36217383818653
900153202,"Siemensstraße","Siemensstraße",0,9001532,9.954960381391036,48.36214576777223
9001532,"Siemensstraße","Siemensstraße",1,,9.954960381391036,48.36214576777223
900125801,"Sonnenfeld","Sonnenfeld",0,9001258,9.937519725903705,48.41411818969433
900125802,"Sonnenfeld","Sonnenfeld",0,9001258,9.93726861111111,48.4141425
9001258,"Sonnenfeld","Sonnenfeld",1,,9.93726861111111,48.4141425
900131001,"Sonnenstraße","Sonnenstraße",0,9001310,9.957764751105046,48.3945859776202
900131002,"Sonnenstraße","Sonnenstraße",0,9001310,9.958465074869306,48.39466473441175
900131003,"Sonnenstraße","Sonnenstraße",0,9001310,9.956645277777779,48.3945102777778
900131011,"Sonnenstraße","Sonnenstraße",0,9001310,9.957764751105046,48.3945859776202
900131012,"Sonnenstraße","Sonnenstraße",0,9001310,9.958465074869306,48.39466473441175
9001310,"Sonnenstraße","Sonnenstraße",1,,9.958465074869306,48.39466473441175
900137801,"Speidelweg","Speidelweg",0,9001378,9.975261435445933,48.38649099679464
9001378,"Speidelweg","Speidelweg",1,,9.975261435445933,48.38649099679464
900134301,"Sportplatz TSG","Sportplatz TSG",0,9001343,9.944938611111111,48.3978038888889
900134302,"Sportplatz TSG","Sportplatz TSG",0,9001343,9.944631401272444,48.39783729649759
9001343,"Sportplatz TSG","Sportplatz TSG",1,,9.944631401272444,48.39783729649759
900163101,"St.-Gallener-Straße","St.-Gallener-Straße",0,9001631,9.9786815277937,48.35008900239865
900163102,"St.-Gallener-Straße","St.-Gallener-Straße",0,9001631,9.9787425312823,48.34971064623952
9001631,"St.-Gallener-Straße","St.-Gallener-Straße",1,,9.9787425312823,48.34971064623952
900134101,"St.-Jakob-Straße","St.-Jakob-Straße",0,9001341,9.949298611111111,48.4008497222222
900134102,"St.-Jakob-Straße","St.-Jakob-Straße",0,9001341,9.950076252057844,48.40048509732899
9001341,"St.-Jakob-Straße","St.-Jakob-Straße",1,,9.950076252057844,48.40048509732899
900124401,"Staudingerstraße","Staudingerstraße",0,9001244,9.952848055555551,48.4245283333333
900124402,"Staudingerstraße","Staudingerstraße",0,9001244,9.952634663393269,48.42437364799373
9001244,"Staudingerstraße","Staudingerstraße",1,,9.952634663393269,48.42437364799373
900105101,"Staufenring","Staufenring",0,9001051,10.0043627291315,48.40351503525372
900105102,"Staufenring","Staufenring",0,9001051,10.00420833333333,48.40349166666668
900105111,"Staufenring","Staufenring",0,9001051,10.0043627291315,48.40351503525372
900105112,"Staufenring","Staufenring",0,9001051,10.00420729997751,48.40349242899565
9001051,"Staufenring","Staufenring",1,,10.00420729997751,48.40349242899565
900150001,"Steinbeisstraße","Steinbeisstraße",0,9001500,9.953390000000001,48.3685977777778
900150002,"Steinbeisstraße","Steinbeisstraße",0,9001500,9.95332638888889,48.36852
9001500,"Steinbeisstraße","Steinbeisstraße",1,,9.95332638888889,48.36852
900100101,"Steinerne Brücke","Steinerne Brücke",0,9001001,9.98820111111111,48.3971741666667
900100102,"Steinerne Brücke","Steinerne Brücke",0,9001001,9.988584002950345,48.39716051007824
9001001,"Steinerne Brücke","Steinerne Brücke",1,,9.988584002950345,48.39716051007824
900105901,"Steinhövelstraße","Steinhövelstraße",0,9001059,10.0051766666667,48.4110986111111
900105902,"Steinhövelstraße","Steinhövelstraße",0,9001059,10.0027597222222,48.4096161111111
9001059,"Steinhövelstraße","Steinhövelstraße",1,,10.0027597222222,48.4096161111111
900173101,"Steubenstraße","Steubenstraße",0,9001731,10.00757657373635,48.39005776385825
900173102,"Steubenstraße","Steubenstraße",0,9001731,10.00780561539367,48.39020085322101
9001731,"Steubenstraße","Steubenstraße",1,,10.00780561539367,48.39020085322101
900129701,"Sulzbachweg","Sulzbachweg",0,9001297,9.959709265339196,48.38901171253543
900129702,"Sulzbachweg","Sulzbachweg",0,9001297,9.959664841339277,48.38893191141434
9001297,"Sulzbachweg","Sulzbachweg",1,,9.959664841339277,48.38893191141434
900119901,"SWU Albstraße (nur Pausenhaltestelle)","SWU Albstraße (nur Pausenhaltestelle)",0,9001199,9.986608333333329,48.4395944444444
9001199,"SWU Albstraße (nur Pausenhaltestelle)","SWU Albstraße (nur Pausenhaltestelle)",1,,9.986608333333329,48.4395944444444
900109998,"SWU Betriebshof","SWU Betriebshof",0,9001099,9.967780261595822,48.39638279819652
900109999,"SWU Betriebshof","SWU Betriebshof",0,9001099,9.96826583333333,48.3963811111111
9001099,"SWU Betriebshof","SWU Betriebshof",1,,9.96826583333333,48.3963811111111
900130001,"Söflingen","Söflingen",0,9001300,9.955005641549018,48.39484933858267
900130002,"Söflingen","Söflingen",0,9001300,9.95512533574775,48.39497506516915
900130003,"Söflingen","Söflingen",0,9001300,9.954646019688408,48.39529428721735
900130011,"Söflingen","Söflingen",0,9001300,9.955005641549018,48.39484933858267
9001300,"Söflingen","Söflingen",1,,9.955005641549018,48.39484933858267
900125701,"Söflinger Weinberge","Söflinger Weinberge",0,9001257,9.941978301123569,48.41231930134795
900125702,"Söflinger Weinberge","Söflinger Weinberge",0,9001257,9.942005551227142,48.4122282331381
9001257,"Söflinger Weinberge","Söflinger Weinberge",1,,9.942005551227142,48.4122282331381
900163401,"Tannenplatz Zentrum","Tannenplatz Zentrum",0,9001634,9.973051773382489,48.35102144742335
900163402,"Tannenplatz Zentrum","Tannenplatz Zentrum",0,9001634,9.972912333201867,48.35148272187173
9001634,"Tannenplatz Zentrum","Tannenplatz Zentrum",1,,9.972912333201867,48.35148272187173
900136201,"Telefunken","Telefunken",0,9001362,9.973362520287417,48.3956658139946
900136202,"Telefunken","Telefunken",0,9001362,9.970157499999999,48.3951027777778
9001362,"Telefunken","Telefunken",1,,9.970157499999999,48.3951027777778
900101001,"Theater","Theater",0,9001010,9.987989377828363,48.40116558407442
900101002,"Theater","Theater",0,9001010,9.987843333333331,48.4011683333333
900101011,"Theater","Theater",0,9001010,9.987989377828363,48.40116558407442
900101012,"Theater","Theater",0,9001010,9.987843333333331,48.4011683333333
9001010,"Theater","Theater",1,,9.987843333333331,48.4011683333333
900135201,"Theodor-Heuss-Platz","Theodor-Heuss-Platz",0,9001352,9.968446814026454,48.39467010116703
900135202,"Theodor-Heuss-Platz","Theodor-Heuss-Platz",0,9001352,9.968316222451739,48.3947427113748
900135203,"Theodor-Heuss-Platz","Theodor-Heuss-Platz",0,9001352,9.968607653483886,48.3949049835039
900135211,"Theodor-Heuss-Platz","Theodor-Heuss-Platz",0,9001352,9.968446814026454,48.39467010116703
900135212,"Theodor-Heuss-Platz","Theodor-Heuss-Platz",0,9001352,9.968316222451739,48.3947427113748
9001352,"Theodor-Heuss-Platz","Theodor-Heuss-Platz",1,,9.968316222451739,48.3947427113748
900107301,"Thüringenweg","Thüringenweg",0,9001073,10.02071883515669,48.43348794604795
900107302,"Thüringenweg","Thüringenweg",0,9001073,10.02000662410152,48.43331946433341
900107311,"Thüringenweg","Thüringenweg",0,9001073,10.0196054579102,48.43323650000287
900107312,"Thüringenweg","Thüringenweg",0,9001073,10.01941294773406,48.43320485629202
9001073,"Thüringenweg","Thüringenweg",1,,10.01941294773406,48.43320485629202
900133301,"Torstraße","Torstraße",0,9001333,9.951868578503625,48.39523299484398
900133302,"Torstraße","Torstraße",0,9001333,9.951918635155687,48.39516806665674
9001333,"Torstraße","Torstraße",1,,9.951918635155687,48.39516806665674
900126101,"Traminerweg","Traminerweg",0,9001261,9.956994845885047,48.41137818306927
900126102,"Traminerweg","Traminerweg",0,9001261,9.957022372116741,48.41153104795627
9001261,"Traminerweg","Traminerweg",1,,9.957022372116741,48.41153104795627
900124001,"Universität Süd","Universität Süd",0,9001240,9.956339691735396,48.42116541506261
900124002,"Universität Süd","Universität Süd",0,9001240,9.956313084106736,48.42189005487215
900124003,"Universität Süd","Universität Süd",0,9001240,9.955994226154614,48.4218187431521
9001240,"Universität Süd","Universität Süd",1,,9.955994226154614,48.4218187431521
900124601,"Universität West","Universität West",0,9001246,9.946964290444925,48.42135601439525
900124602,"Universität West","Universität West",0,9001246,9.947339722222219,48.4214508333333
9001246,"Universität West","Universität West",1,,9.947339722222219,48.4214508333333
900126501,"Veltlinerweg","Veltlinerweg",0,9001265,9.950177420604046,48.4098646373876
900126502,"Veltlinerweg","Veltlinerweg",0,9001265,9.951347688918,48.4097678383848
9001265,"Veltlinerweg","Veltlinerweg",1,,9.951347688918,48.4097678383848
900125601,"Virchowstraße","Virchowstraße",0,9001256,9.945935288994077,48.41403975681441
900125602,"Virchowstraße","Virchowstraße",0,9001256,9.946173692427472,48.4140844664492
9001256,"Virchowstraße","Virchowstraße",1,,9.946173692427472,48.4140844664492
900153401,"Voithstraße","Voithstraße",0,9001534,9.95602666666667,48.36759527777781
9001534,"Voithstraße","Voithstraße",1,,9.95602666666667,48.36759527777781
900171901,"Waldeck","Waldeck",0,9001719,10.01025149276508,48.39425937317325
900171902,"Waldeck","Waldeck",0,9001719,10.0096522222222,48.39447416666669
9001719,"Waldeck","Waldeck",1,,10.0096522222222,48.39447416666669
900174401,"Washingtonallee","Washingtonallee",0,9001744,10.0111294444444,48.37989027777779
9001744,"Washingtonallee","Washingtonallee",1,,10.0111294444444,48.37989027777779
900137701,"Weyermannweg","Weyermannweg",0,9001377,9.972959683565296,48.38739910848901
9001377,"Weyermannweg","Weyermannweg",1,,9.972959683565296,48.38739910848901
900173601,"Wiley Club","Wiley Club",0,9001736,10.00773855050804,48.38129337553723
900173602,"Wiley Club","Wiley Club",0,9001736,10.0077774432072,48.38092268444328
9001736,"Wiley Club","Wiley Club",1,,10.0077774432072,48.38092268444328
900172701,"Wiley Süd","Wiley Süd",0,9001727,10.01060884478975,48.3769448405822
900172702,"Wiley Süd","Wiley Süd",0,9001727,10.0105616666667,48.3769363888889
9001727,"Wiley Süd","Wiley Süd",1,,10.0105616666667,48.3769363888889
900104603,"Wilhelmsburgkaserne","Wilhelmsburgkaserne",0,9001046,9.98381,48.4180494444444
9001046,"Wilhelmsburgkaserne","Wilhelmsburgkaserne",1,,9.98381,48.4180494444444
900105001,"Willy-Brandt-Platz","Willy-Brandt-Platz",0,9001050,10.0017094441198,48.40270368971045
900105002,"Willy-Brandt-Platz","Willy-Brandt-Platz",0,9001050,10.00032651203739,48.40259731831384
900105003,"Willy-Brandt-Platz","Willy-Brandt-Platz",0,9001050,10.00092626834855,48.40242605998625
900105011,"Willy-Brandt-Platz","Willy-Brandt-Platz",0,9001050,10.0017094441198,48.40270368971045
900105012,"Willy-Brandt-Platz","Willy-Brandt-Platz",0,9001050,10.00032651203739,48.40259731831384
9001050,"Willy-Brandt-Platz","Willy-Brandt-Platz",1,,10.00032651203739,48.40259731831384
900105301,"Wohnpark Friedrichsau","Wohnpark Friedrichsau",0,9001053,10.00899675513431,48.40850714754746
900105302,"Wohnpark Friedrichsau","Wohnpark Friedrichsau",0,9001053,10.00897842038719,48.40842361233705
900105311,"Wohnpark Friedrichsau","Wohnpark Friedrichsau",0,9001053,10.00899675513431,48.40850714754746
900105312,"Wohnpark Friedrichsau","Wohnpark Friedrichsau",0,9001053,10.00897842038719,48.40842361233705
9001053,"Wohnpark Friedrichsau","Wohnpark Friedrichsau",1,,10.00897842038719,48.40842361233705
900100001,"ZOB","ZOB",0,9001000,9.983832783147156,48.39812276655508
900100002,"ZOB","ZOB",0,9001000,9.983831241169071,48.39802299375903
900100003,"ZOB","ZOB",0,9001000,9.983850562115054,48.39791542755497
900100004,"ZOB","ZOB",0,9001000,9.983853899988191,48.3978074503999
900100008,"ZOB","ZOB",0,9001000,9.983629738206595,48.39761146797456
900100009,"ZOB","ZOB",0,9001000,9.98361222222222,48.39828722222221
9001000,"ZOB","ZOB",1,,9.98361222222222,48.39828722222221
900170001,"ZUP","ZUP",0,9001700,10.00362615956946,48.3920286204166
900170003,"ZUP","ZUP",0,9001700,10.00361286438804,48.39222531028581
900170004,"ZUP","ZUP",0,9001700,10.00298123071912,48.39187796647231
900170007,"ZUP","ZUP",0,9001700,10.00336451833934,48.39228409090852
900170008,"ZUP","ZUP",0,9001700,10.00285721485396,48.39200832303323
9001700,"ZUP","ZUP",1,,10.00285721485396,48.39200832303323
900104801,"Örlinger Straße","Örlinger Straße",0,9001048,10.0016213888889,48.4087463888889
9001048,"Örlinger Straße","Örlinger Straße",1,,10.0016213888889,48.4087463888889
